{"type":"FeatureCollection","features":[{"type":"Feature","geometry":{"type":"Point","coordinates":[-9.089244989861788,38.82196066583639]},"properties":{"name":"São João Talha"}},{"type":"Feature","geometry":{"type":"Point","coordinates":[-8.604616459075606,41.03090348507958]},"properties":{"name":"Grijó"}},{"type":"Feature","geometry":{"type":"Point","coordinates":[-8.305006888087616,37.15053399234477]},"properties":{"name":"Algarve"}},{"type":"Feature","geometry":{"type":"Point","coordinates":[-8.712909077742603,39.84082985375684]},"properties":{"name":"Pombal"}},{"type":"Feature","geometry":{"type":"Point","coordinates":[-7.9124294048075585,38.54741062705402]},"properties":{"name":"Alentejo"}},{"type":"Feature","geometry":{"type":"Point","coordinates":[-7.720740304094477,41.28325385732749]},"properties":{"name":"Vila Real"}},{"type":"Feature","geometry":{"type":"Point","coordinates":[-7.55583157589577,39.78994827556144]},"properties":{"name":"Castelo Branco"}}]}